[
  { "id": "DC01", "status": "OPEN", "type": "DC", "name": "DC01 - NEW WESTMINSTER", "address": "415 BOYNE STREET", "city": "NEW WESTMINSTER", "state": "BC", "postalCode": "V3M5K3", "country": "Canada", "timezone": "PACIFIC", "primaryDC": "", "lat": 49.2069, "lng": -122.9110 },
  { "id": "DC03", "status": "OPEN", "type": "DC", "name": "DC03 - VAUGHAN", "address": "850 GIBRALTAR ROAD, UNIT 1", "city": "VAUGHAN", "state": "ON", "postalCode": "L4H5H4", "country": "Canada", "timezone": "EASTERN", "primaryDC": "", "lat": 43.8361, "lng": -79.4983 },
  { "id": "DC05", "status": "OPEN", "type": "DC", "name": "DC05 - GROVEPORT (DHL)", "address": "2829 ROHR ROAD", "city": "GROVEPORT", "state": "OH", "postalCode": "43125", "country": "United States", "timezone": "EASTERN", "primaryDC": "", "lat": 39.8673, "lng": -82.8885 },
  { "id": "1002", "status": "OPEN", "type": "Store", "name": "ARITZIA METROPOLIS", "address": "4700 KINGSWAY, UNIT 330", "city": "BURNABY", "state": "BC", "postalCode": "V5H4M1", "country": "Canada", "timezone": "PACIFIC", "primaryDC": "DC01", "lat": 49.2488, "lng": -122.9805 },
  { "id": "1003", "status": "OPEN", "type": "Store", "name": "ARITZIA ROBSON", "address": "1110 ROBSON STREET", "city": "VANCOUVER", "state": "BC", "postalCode": "V6E1B2", "country": "Canada", "timezone": "PACIFIC", "primaryDC": "DC01", "lat": 49.2827, "lng": -123.1207 },
  { "id": "1004", "status": "OPEN", "type": "Store", "name": "ARITZIA PARK ROYAL", "address": "761 MAIN STREET", "city": "WEST VANCOUVER", "state": "BC", "postalCode": "V7T0A5", "country": "Canada", "timezone": "PACIFIC", "primaryDC": "DC01", "lat": 49.3268, "lng": -123.1654 },
  { "id": "1005", "status": "OPEN", "type": "Store", "name": "ARITZIA RICHMOND CENTRE", "address": "6551 NO. 3 ROAD, UNIT 1640A", "city": "RICHMOND", "state": "BC", "postalCode": "V6Y2B6", "country": "Canada", "timezone": "PACIFIC", "primaryDC": "DC01", "lat": 49.1666, "lng": -123.1336 },
  { "id": "1007", "status": "OPEN", "type": "Store", "name": "ARITZIA PACIFIC CENTRE", "address": "701 W GEORGIA STREET, UNIT G002A", "city": "VANCOUVER", "state": "BC", "postalCode": "V7Y1A1", "country": "Canada", "timezone": "PACIFIC", "primaryDC": "DC01", "lat": 49.2827, "lng": -123.1207 },
  { "id": "1008", "status": "OPEN", "type": "Store", "name": "ARITZIA COQUITLAM CENTRE", "address": "2929 BARNET HIGHWAY, CRU 2341", "city": "PORT COQUITLAM", "state": "BC", "postalCode": "V3B5R5", "country": "Canada", "timezone": "PACIFIC", "primaryDC": "DC01", "lat": 49.2700, "lng": -122.7810 },
  { "id": "1009", "status": "OPEN", "type": "Store", "name": "ARITZIA WHISTLER", "address": "4295 BLACKCOMB WAY, UNIT 110", "city": "WHISTLER", "state": "BC", "postalCode": "V8E0X2", "country": "Canada", "timezone": "PACIFIC", "primaryDC": "DC01", "lat": 50.1163, "lng": -122.9574 },
  { "id": "1010", "status": "OPEN", "type": "Store", "name": "ARITZIA MAYFAIR", "address": "3147 DOUGLAS STREET, UNIT 165", "city": "VICTORIA", "state": "BC", "postalCode": "V8Z6E3", "country": "Canada", "timezone": "PACIFIC", "primaryDC": "DC01", "lat": 48.4284, "lng": -123.3656 },
  { "id": "1011", "status": "OPEN", "type": "Store", "name": "ARITZIA GUILDFORD MALL", "address": "10355 152 STREET, UNIT 2025", "city": "SURREY", "state": "BC", "postalCode": "V3R7C1", "country": "Canada", "timezone": "PACIFIC", "primaryDC": "DC01", "lat": 49.1913, "lng": -122.8490 },
  { "id": "1012", "status": "OPEN", "type": "Store", "name": "ARITZIA TSAWWASSEN MILLS", "address": "5000 CANOE PASS WAY, CRU 137", "city": "TSAWWASSEN", "state": "BC", "postalCode": "V4M0B3", "country": "Canada", "timezone": "PACIFIC", "primaryDC": "DC01", "lat": 49.0183, "lng": -123.0697 },
  { "id": "1014", "status": "OPEN", "type": "Store", "name": "ARITZIA MCARTHUR GLENN", "address": "7899 TEMPLETON STATION ROAD", "city": "RICHMOND", "state": "BC", "postalCode": "V7B0B7", "country": "Canada", "timezone": "PACIFIC", "primaryDC": "DC01", "lat": 49.1666, "lng": -123.1336 },
  { "id": "1015", "status": "OPEN", "type": "Store", "name": "ARITZIA WEST 4TH", "address": "2199 W 4TH AVE", "city": "VANCOUVER", "state": "BC", "postalCode": "V6K1N7", "country": "Canada", "timezone": "PACIFIC", "primaryDC": "DC01", "lat": 49.2827, "lng": -123.1207 },
  { "id": "1021", "status": "OPEN", "type": "Store", "name": "ARITZIA CHINOOK CENTRE", "address": "6455 MACLEOD TRAIL SW, UNIT 0174B", "city": "CALGARY", "state": "AB", "postalCode": "T2H0K8", "country": "Canada", "timezone": "MOUNTAIN", "primaryDC": "DC01", "lat": 51.0447, "lng": -114.0719 },
  { "id": "1022", "status": "OPEN", "type": "Store", "name": "ARITZIA MARKET MALL", "address": "3625 SHAGANAPPI TRAIL NW, UNIT PO40", "city": "CALGARY", "state": "AB", "postalCode": "T3A0E2", "country": "Canada", "timezone": "MOUNTAIN", "primaryDC": "DC01", "lat": 51.0447, "lng": -114.0719 },
  { "id": "1023", "status": "OPEN", "type": "Store", "name": "ARITZIA SOUTH CENTRE", "address": "100 ANDERSON RD SE, CRU 256A", "city": "CALGARY", "state": "AB", "postalCode": "T2J3V1", "country": "Canada", "timezone": "MOUNTAIN", "primaryDC": "DC01", "lat": 51.0447, "lng": -114.0719 },
  { "id": "1024", "status": "OPEN", "type": "Store", "name": "ARITZIA WEM", "address": "8882 170TH ST, L107/L109", "city": "EDMONTON", "state": "AB", "postalCode": "T5T3J7", "country": "Canada", "timezone": "MOUNTAIN", "primaryDC": "DC01", "lat": 53.5461, "lng": -113.4938 },
  { "id": "1025", "status": "OPEN", "type": "Store", "name": "ARITZIA SOUTHGATE CENTRE", "address": "5015 111 STREET NW, UNIT 21", "city": "EDMONTON", "state": "AB", "postalCode": "T6H4M6", "country": "Canada", "timezone": "MOUNTAIN", "primaryDC": "DC01", "lat": 53.5461, "lng": -113.4938 },
  { "id": "1026", "status": "OPEN", "type": "Store", "name": "ARITZIA KINGSWAY MALL", "address": "109 KINGSWAY GARDEN MALL NW, UNIT 128", "city": "EDMONTON", "state": "AB", "postalCode": "T5G3A6", "country": "Canada", "timezone": "MOUNTAIN", "primaryDC": "DC01", "lat": 53.5461, "lng": -113.4938 },
  { "id": "1027", "status": "OPEN", "type": "Store", "name": "ARITZIA TD SQUARE", "address": "317 7TH AVENUE SW, UNIT 210", "city": "CALGARY", "state": "AB", "postalCode": "T2P2Y9", "country": "Canada", "timezone": "MOUNTAIN", "primaryDC": "DC01", "lat": 51.0447, "lng": -114.0719 },
  { "id": "1028", "status": "OPEN", "type": "Store", "name": "ARITZIA CROSSIRON MILLS", "address": "261055 CROSSIRON BLVD, UNIT 454", "city": "ROCKY VIEW", "state": "AB", "postalCode": "T4A0G3", "country": "Canada", "timezone": "MOUNTAIN", "primaryDC": "DC01", "lat": 51.2167, "lng": -114.0167 },
  { "id": "1052", "status": "OPEN", "type": "Store", "name": "TNA METROPOLIS", "address": "4700 KINGSWAY, UNIT 2128", "city": "BURNABY", "state": "BC", "postalCode": "V5H4M1", "country": "Canada", "timezone": "PACIFIC", "primaryDC": "DC01", "lat": 49.2488, "lng": -122.9805 },
  { "id": "1053", "status": "OPEN", "type": "Store", "name": "TNA WHISTLER", "address": "4154 VILLAGE GREEN, UNIT 5", "city": "WHISTLER", "state": "BC", "postalCode": "V8E1H1", "country": "Canada", "timezone": "PACIFIC", "primaryDC": "DC01", "lat": 50.1163, "lng": -122.9574 },
  { "id": "1055", "status": "OPEN", "type": "Store", "name": "TNA TORONTO EATON CENTRE", "address": "220 YONGE STREET, UNIT 118", "city": "TORONTO", "state": "ON", "postalCode": "M5B2H1", "country": "Canada", "timezone": "EASTERN", "primaryDC": "DC03", "lat": 43.6532, "lng": -79.3832 },
  { "id": "1056", "status": "OPEN", "type": "Store", "name": "TNA CHINOOK CENTRE", "address": "6455 MACLEOD TRAIL SW, UNIT 1068", "city": "CALGARY", "state": "AB", "postalCode": "T2H0K8", "country": "Canada", "timezone": "MOUNTAIN", "primaryDC": "DC01", "lat": 51.0447, "lng": -114.0719 },
  { "id": "1061", "status": "OPEN", "type": "Store", "name": "BABATON EATON CENTRE", "address": "220 YONGE STREET, UNIT C008A", "city": "TORONTO", "state": "ON", "postalCode": "M5B2H1", "country": "Canada", "timezone": "EASTERN", "primaryDC": "DC03", "lat": 43.6532, "lng": -79.3832 },
  { "id": "1062", "status": "OPEN", "type": "Store", "name": "BABATON YORKDALE", "address": "3401 DUFFERIN STREET, CRU 71", "city": "TORONTO", "state": "ON", "postalCode": "M6A2T9", "country": "Canada", "timezone": "EASTERN", "primaryDC": "DC03", "lat": 43.6532, "lng": -79.3832 },
  { "id": "1063", "status": "OPEN", "type": "Store", "name": "BABATON SQUARE ONE", "address": "100 CITY CENTRE DRIVE, UNIT 2-412", "city": "MISSISSAUGA", "state": "ON", "postalCode": "L5B2C9", "country": "Canada", "timezone": "EASTERN", "primaryDC": "DC03", "lat": 43.5890, "lng": -79.6441 },
  { "id": "1064", "status": "OPEN", "type": "Store", "name": "BABATON PACIFIC CENTRE", "address": "701 W GEORGIA ST, UNIT D067C", "city": "VANCOUVER", "state": "BC", "postalCode": "V7Y1A1", "country": "Canada", "timezone": "PACIFIC", "primaryDC": "DC01", "lat": 49.2827, "lng": -123.1207 },
  { "id": "1081", "status": "OPEN", "type": "Store", "name": "WILFRED TORONTO EATON CENTRE", "address": "220 YONGE STREET, UNIT C008", "city": "TORONTO", "state": "ON", "postalCode": "M5B2H1", "country": "Canada", "timezone": "EASTERN", "primaryDC": "DC03", "lat": 43.6532, "lng": -79.3832 },
  { "id": "1083", "status": "OPEN", "type": "Store", "name": "WILFRED SHERWAY GARDENS", "address": "25 THE WEST MALL, CRU 1534", "city": "ETOBICOKE", "state": "ON", "postalCode": "M9C1B8", "country": "Canada", "timezone": "EASTERN", "primaryDC": "DC03", "lat": 43.6205, "lng": -79.5132 },
  { "id": "1084", "status": "OPEN", "type": "Store", "name": "WILFRED PACIFIC CENTRE", "address": "701 WEST GEORGIA STREET", "city": "VANCOUVER", "state": "BC", "postalCode": "V7Y1A1", "country": "Canada", "timezone": "PACIFIC", "primaryDC": "DC01", "lat": 49.2827, "lng": -123.1207 },
  { "id": "1085", "status": "OPEN", "type": "Store", "name": "WILFRED CHINOOK CENTRE", "address": "6455 MACLEOD TRAIL SW, CRU 0128", "city": "CALGARY", "state": "AB", "postalCode": "T2H0K8", "country": "Canada", "timezone": "MOUNTAIN", "primaryDC": "DC01", "lat": 51.0447, "lng": -114.0719 },
  { "id": "1086", "status": "OPEN", "type": "Store", "name": "WILFRED SQUARE ONE", "address": "100 CITY CENTRE DRIVE, UNIT 2-252", "city": "MISSISSAUGA", "state": "ON", "postalCode": "L5B2C9", "country": "Canada", "timezone": "EASTERN", "primaryDC": "DC03", "lat": 43.5890, "lng": -79.6441 },
  { "id": "1106", "status": "OPEN", "type": "Store", "name": "ARITZIA ORCHARD PARK", "address": "2271 HARVEY STREET, UNIT 1025", "city": "KELOWNA", "state": "BC", "postalCode": "V1Y6H2", "country": "Canada", "timezone": "PACIFIC", "primaryDC": "DC01", "lat": 49.8880, "lng": -119.4960 },
  { "id": "1135", "status": "OPEN", "type": "Store", "name": "ARITZIA TEC TEMP", "address": "220 YONGE STREET, B004B", "city": "TORONTO", "state": "ON", "postalCode": "M5B2H1", "country": "Canada", "timezone": "EASTERN", "primaryDC": "DC03", "lat": 43.6532, "lng": -79.3832 },
  { "id": "1192", "status": "OPEN", "type": "Store", "name": "ARITZIA LAVAL TEMP", "address": "3035 BOULEVARD LE CARREFOUR, UNIT T015", "city": "LAVAL", "state": "QC", "postalCode": "H7T1C8", "country": "Canada", "timezone": "EASTERN", "primaryDC": "DC03", "lat": 45.5667, "lng": -73.6927 },
  { "id": "1261", "status": "OPEN", "type": "Store", "name": "ARITZIA MIDTOWN PLAZA", "address": "201 1ST AVE SOUTH, UNIT 2C", "city": "SASKATOON", "state": "SK", "postalCode": "S7K1J9", "country": "Canada", "timezone": "MOUNTAIN", "primaryDC": "DC01", "lat": 52.1332, "lng": -106.6700 },
  { "id": "1301", "status": "OPEN", "type": "Store", "name": "ARITZIA YORKDALE", "address": "3401 DUFFERIN STREET, UNIT 28A", "city": "TORONTO", "state": "ON", "postalCode": "M6A2T9", "country": "Canada", "timezone": "EASTERN", "primaryDC": "DC03", "lat": 43.6532, "lng": -79.3832 },
  { "id": "1302", "status": "OPEN", "type": "Store", "name": "ARITZIA QUEEN STREET", "address": "280 QUEEN STREET WEST", "city": "TORONTO", "state": "ON", "postalCode": "M5V2A1", "country": "Canada", "timezone": "EASTERN", "primaryDC": "DC03", "lat": 43.6532, "lng": -79.3832 },
  { "id": "1303", "status": "OPEN", "type": "Store", "name": "ARITZIA SQUARE ONE", "address": "100 CITY CENTRE DRIVE, CRU 2-401", "city": "MISSISSAUGA", "state": "ON", "postalCode": "L5B2C9", "country": "Canada", "timezone": "EASTERN", "primaryDC": "DC03", "lat": 43.5890, "lng": -79.6441 },
  { "id": "1304", "status": "OPEN", "type": "Store", "name": "ARITZIA EATON CENTRE", "address": "220 YONGE STREET, CRU B-14A", "city": "TORONTO", "state": "ON", "postalCode": "M5B2H1", "country": "Canada", "timezone": "EASTERN", "primaryDC": "DC03", "lat": 43.6532, "lng": -79.3832 },
  { "id": "1305", "status": "OPEN", "type": "Store", "name": "ARITZIA BLOOR ST", "address": "50 BLOOR STREET WEST, UNIT A-06", "city": "TORONTO", "state": "ON", "postalCode": "M4W3L8", "country": "Canada", "timezone": "EASTERN", "primaryDC": "DC03", "lat": 43.6532, "lng": -79.3832 },
  { "id": "1306", "status": "OPEN", "type": "Store", "name": "ARITZIA VAUGHAN MILLS", "address": "1 BASS PRO MILLS DRIVE, UNIT F4", "city": "VAUGHAN", "state": "ON", "postalCode": "L4K5W4", "country": "Canada", "timezone": "EASTERN", "primaryDC": "DC03", "lat": 43.8361, "lng": -79.4983 },
  { "id": "1307", "status": "OPEN", "type": "Store", "name": "ARITZIA SHERWAY GARDENS", "address": "25 THE WEST MALL, CRU C28", "city": "TORONTO", "state": "ON", "postalCode": "M9C1B8", "country": "Canada", "timezone": "EASTERN", "primaryDC": "DC03", "lat": 43.6532, "lng": -79.3832 },
  { "id": "1308", "status": "OPEN", "type": "Store", "name": "ARITZIA FAIRVIEW MALL", "address": "1800 SHEPPARD AVENUE EAST, 2028A", "city": "TORONTO", "state": "ON", "postalCode": "M2J5A7", "country": "Canada", "timezone": "EASTERN", "primaryDC": "DC03", "lat": 43.6532, "lng": -79.3832 },
  { "id": "1310", "status": "OPEN", "type": "Store", "name": "ARITZIA DON MILLS", "address": "1090 DON MILLS ROAD", "city": "TORONTO", "state": "ON", "postalCode": "M3C3R6", "country": "Canada", "timezone": "EASTERN", "primaryDC": "DC03", "lat": 43.6532, "lng": -79.3832 },
  { "id": "1311", "status": "OPEN", "type": "Store", "name": "ARITZIA MAPLEVIEW CENTRE", "address": "900 MAPLE AVE, UNIT AA25A", "city": "BURLINGTON", "state": "ON", "postalCode": "L7S2J8", "country": "Canada", "timezone": "EASTERN", "primaryDC": "DC03", "lat": 43.3255, "lng": -79.7990 },
  { "id": "1312", "status": "OPEN", "type": "Store", "name": "ARITZIA UPPER CANADA MALL", "address": "17600 YONGE STREET, UNIT BB1/BB3", "city": "NEWMARKET", "state": "ON", "postalCode": "L3Y4Z1", "country": "Canada", "timezone": "EASTERN", "primaryDC": "DC03", "lat": 44.0592, "lng": -79.4613 },
  { "id": "1314", "status": "OPEN", "type": "Store", "name": "ARITZIA SCARBOROUGH", "address": "300 BOROUGH DRIVE, UNIT 280", "city": "SCARBOROUGH", "state": "ON", "postalCode": "M1P4P5", "country": "Canada", "timezone": "EASTERN", "primaryDC": "DC03", "lat": 43.7764, "lng": -79.2318 },
  { "id": "1315", "status": "OPEN", "type": "Store", "name": "ARITZIA MARKVILLE CENTRE", "address": "5000 HWY 7, 1046L", "city": "MARKHAM", "state": "ON", "postalCode": "L3R4M9", "country": "Canada", "timezone": "EASTERN", "primaryDC": "DC03", "lat": 43.8561, "lng": -79.3370 },
  { "id": "1316", "status": "OPEN", "type": "Store", "name": "ARITZIA LIMERIDGE", "address": "999 UPPER WENTWORTH STREET, 160B", "city": "HAMILTON", "state": "ON", "postalCode": "L9A4X5", "country": "Canada", "timezone": "EASTERN", "primaryDC": "DC03", "lat": 43.2557, "lng": -79.8711 },
  { "id": "1317", "status": "OPEN", "type": "Store", "name": "ARITZIA BRAMALEA", "address": "25 PEEL CENTRE DRIVE, UNIT 532", "city": "BRAMPTON", "state": "ON", "postalCode": "L6T3R5", "country": "Canada", "timezone": "EASTERN", "primaryDC": "DC03", "lat": 43.7315, "lng": -79.7624 },
  { "id": "1318", "status": "OPEN", "type": "Store", "name": "ARITZIA OSHAWA", "address": "419 KING STREET WEST, CRU 2055", "city": "OSHAWA", "state": "ON", "postalCode": "L1J2K5", "country": "Canada", "timezone": "EASTERN", "primaryDC": "DC03", "lat": 43.8971, "lng": -78.8658 },
  { "id": "1319", "status": "OPEN", "type": "Store", "name": "ARITZIA HILLCREST MALL", "address": "9350 YONGE STREET, CRU C006A", "city": "RICHMOND HILL", "state": "ON", "postalCode": "L4C5G2", "country": "Canada", "timezone": "EASTERN", "primaryDC": "DC03", "lat": 43.8828, "lng": -79.4403 },
  { "id": "1320", "status": "OPEN", "type": "Store", "name": "ARITZIA CONESTOGA", "address": "550 KING ST N, C10A", "city": "WATERLOO", "state": "ON", "postalCode": "N2L5W6", "country": "Canada", "timezone": "EASTERN", "primaryDC": "DC03", "lat": 43.4668, "lng": -80.5164 },
  { "id": "1321", "status": "OPEN", "type": "Store", "name": "ARITZIA FAIRVIEW PARK", "address": "2960 KINGSWAY DRIVE, UNIT J1", "city": "KITCHENER", "state": "ON", "postalCode": "N2C1X1", "country": "Canada", "timezone": "EASTERN", "primaryDC": "DC03", "lat": 43.4516, "lng": -80.4925 },
  { "id": "1322", "status": "OPEN", "type": "Store", "name": "ARITZIA MASONVILLE PLACE", "address": "1680 RICHMOND STREET N, UNIT LO68A", "city": "LONDON", "state": "ON", "postalCode": "N6G3Y9", "country": "Canada", "timezone": "EASTERN", "primaryDC": "DC03", "lat": 42.9849, "lng": -81.2453 },
  { "id": "1323", "status": "OPEN", "type": "Store", "name": "ARITZIA TORONTO PREMIUM OUTLETS", "address": "13850 STEELES AVE W, STE 1200", "city": "HALTON HILLS", "state": "ON", "postalCode": "L7G0J1", "country": "Canada", "timezone": "EASTERN", "primaryDC": "DC03", "lat": 43.6312, "lng": -79.9238 },
  { "id": "1324", "status": "OPEN", "type": "Store", "name": "ARITZIA COLLECTION AT NIAGARA", "address": "300 TAYLOR RD, 519", "city": "NIAGARA-ON-THE-LAKE", "state": "ON", "postalCode": "L0S1J0", "country": "Canada", "timezone": "EASTERN", "primaryDC": "DC03", "lat": 43.2553, "lng": -79.0716 },
  { "id": "1351", "status": "OPEN", "type": "Store", "name": "ARITZIA RIDEAU CENTRE", "address": "50 RIDEAU STREET, UNIT 232", "city": "OTTAWA", "state": "ON", "postalCode": "K1N9J7", "country": "Canada", "timezone": "EASTERN", "primaryDC": "DC03", "lat": 45.4215, "lng": -75.6972 },
  { "id": "1352", "status": "OPEN", "type": "Store", "name": "ARITZIA BAYSHORE CENTRE", "address": "100 BAYSHORE DRIVE, UNIT CC5A", "city": "OTTAWA", "state": "ON", "postalCode": "K2B8C1", "country": "Canada", "timezone": "EASTERN", "primaryDC": "DC03", "lat": 45.4215, "lng": -75.6972 },
  { "id": "1361", "status": "OPEN", "type": "Store", "name": "ARITZIA POLO PARK", "address": "1485 PORTAGE AVENUE, Y003", "city": "WINNIPEG", "state": "MB", "postalCode": "R3G0W4", "country": "Canada", "timezone": "MOUNTAIN", "primaryDC": "DC03", "lat": 49.8951, "lng": -97.1384 },
  { "id": "1901", "status": "OPEN", "type": "Store", "name": "ARITZIA LAVAL", "address": "3035 BOULEVARD LE CARREFOUR, UNIT Y017", "city": "LAVAL", "state": "QC", "postalCode": "H7T1C8", "country": "Canada", "timezone": "EASTERN", "primaryDC": "DC03", "lat": 45.5667, "lng": -73.6927 },
  { "id": "1902", "status": "OPEN", "type": "Store", "name": "ARITZIA MONTREAL EATON CENTRE", "address": "705 RUE SAINTE-CATHERINE OUEST, UNIT 3136A", "city": "MONTREAL", "state": "QC", "postalCode": "H3B4G5", "country": "Canada", "timezone": "EASTERN", "primaryDC": "DC03", "lat": 45.5017, "lng": -73.5673 },
  { "id": "1903", "status": "OPEN", "type": "Store", "name": "ARITZIA FAIRVIEW POINTE CLAIRE", "address": "6801 AUTOROUTE TRANSCANADIENNE, UNIT H013", "city": "POINTE-CLAIRE", "state": "QC", "postalCode": "H9R5J2", "country": "Canada", "timezone": "EASTERN", "primaryDC": "DC03", "lat": 45.4544, "lng": -73.8247 },
  { "id": "1904", "status": "OPEN", "type": "Store", "name": "ARITZIA ST CATHERINES", "address": "1125 RUE SAINTE-CATHERINE OUEST", "city": "MONTREAL", "state": "QC", "postalCode": "H3B1H8", "country": "Canada", "timezone": "EASTERN", "primaryDC": "DC03", "lat": 45.5017, "lng": -73.5673 },
  { "id": "1905", "status": "OPEN", "type": "Store", "name": "ARITZIA ST BRUNO", "address": "1 BOULEVARD DES PROMENADES, CRU C-01C", "city": "SAINT-BRUNO", "state": "QC", "postalCode": "J3V5J5", "country": "Canada", "timezone": "EASTERN", "primaryDC": "DC03", "lat": 45.5344, "lng": -73.3543 },
  { "id": "1906", "status": "OPEN", "type": "Store", "name": "ARITZIA PLACE STE-FOY", "address": "2450 BOUL LAURIER, UNIT 002D", "city": "QUEBEC CITY", "state": "QC", "postalCode": "G1V2L1", "country": "Canada", "timezone": "EASTERN", "primaryDC": "DC03", "lat": 46.8139, "lng": -71.2080 },
  { "id": "1907", "status": "OPEN", "type": "Store", "name": "ARITZIA MONTREAL PREMIUM OUTLETS", "address": "19001 CHEMIN NOTRE-DAME, 727", "city": "MIRABEL", "state": "QC", "postalCode": "J7J0T1", "country": "Canada", "timezone": "EASTERN", "primaryDC": "DC03", "lat": 45.6586, "lng": -74.0896 },
  { "id": "1951", "status": "OPEN", "type": "Store", "name": "ARITZIA HALIFAX SHOPPING CENTRE", "address": "7001 MUMFORD ROAD, UNIT 131", "city": "HALIFAX", "state": "NS", "postalCode": "B3L4N9", "country": "Canada", "timezone": "EASTERN", "primaryDC": "DC03", "lat": 44.6488, "lng": -63.5752 },
  { "id": "2161", "status": "OPEN", "type": "Store", "name": "ARITZIA GEORGETOWN", "address": "3210 NW M STREET", "city": "WASHINGTON", "state": "DC", "postalCode": "20007", "country": "United States", "timezone": "EASTERN", "primaryDC": "DC05", "lat": 38.9072, "lng": -77.0369 },
  { "id": "2162", "status": "OPEN", "type": "Store", "name": "ARITZIA GREENWICH", "address": "165 GREENWICH AVE", "city": "GREENWICH", "state": "CT", "postalCode": "06830", "country": "United States", "timezone": "EASTERN", "primaryDC": "DC05", "lat": 41.0534, "lng": -73.6284 },
  { "id": "2164", "status": "OPEN", "type": "Store", "name": "ARITZIA WOODBURY COMMON", "address": "498 RED APPLE CT, UNIT 240", "city": "CENTRAL VALLEY", "state": "NY", "postalCode": "10917", "country": "United States", "timezone": "EASTERN", "primaryDC": "DC05", "lat": 41.3334, "lng": -74.1182 },
  { "id": "2401", "status": "OPEN", "type": "Store", "name": "ARITZIA BELLEVUE SQUARE", "address": "1050 BELLEVUE SQUARE", "city": "BELLEVUE", "state": "WA", "postalCode": "98004", "country": "United States", "timezone": "PACIFIC", "primaryDC": "DC05", "lat": 47.6101, "lng": -122.2015 },
  { "id": "2402", "status": "OPEN", "type": "Store", "name": "ARITZIA UNIVERSITY VILLAGE", "address": "2685 NE UNIVERSITY VILLAGE", "city": "SEATTLE", "state": "WA", "postalCode": "98105", "country": "United States", "timezone": "PACIFIC", "primaryDC": "DC05", "lat": 47.6062, "lng": -122.3321 },
  { "id": "2411", "status": "OPEN", "type": "Store", "name": "ARITZIA VALLEY FAIR MALL", "address": "2855 STEVENS CREEK BLVD, A118", "city": "SANTA CLARA", "state": "CA", "postalCode": "95050", "country": "United States", "timezone": "PACIFIC", "primaryDC": "DC05", "lat": 37.3541, "lng": -121.9552 },
  { "id": "2414", "status": "OPEN", "type": "Store", "name": "ARITZIA BROADWAY PLAZA", "address": "1265 BROADWAY PLAZA, UNIT C14", "city": "WALNUT CREEK", "state": "CA", "postalCode": "94596", "country": "United States", "timezone": "PACIFIC", "primaryDC": "DC05", "lat": 37.9101, "lng": -122.0652 },
  { "id": "2415", "status": "OPEN", "type": "Store", "name": "ARITZIA STANFORD", "address": "660 STANFORD SHOPPING CTR, 1001", "city": "PALO ALTO", "state": "CA", "postalCode": "94304", "country": "United States", "timezone": "PACIFIC", "primaryDC": "DC05", "lat": 37.4419, "lng": -122.1430 },
  { "id": "2416", "status": "OPEN", "type": "Store", "name": "ARITZIA THE VILLAGE AT CORTE MADERA", "address": "1524 REDWOOD HWY 3, C03", "city": "CORTE MADERA", "state": "CA", "postalCode": "94925", "country": "United States", "timezone": "PACIFIC", "primaryDC": "DC05", "lat": 37.9249, "lng": -122.5264 },
  { "id": "2417", "status": "OPEN", "type": "Store", "name": "ARITZIA GALLERIA ROSEVILLE", "address": "1151 GALLERIA BLVD, SUITE 131", "city": "ROSEVILLE", "state": "CA", "postalCode": "95678", "country": "United States", "timezone": "PACIFIC", "primaryDC": "DC05", "lat": 38.7521, "lng": -121.2880 },
  { "id": "2421", "status": "OPEN", "type": "Store", "name": "ARITZIA WASHINGTON SQUARE", "address": "9665 SW WASHINGTON SQ RD, UNIT C02", "city": "PORTLAND", "state": "OR", "postalCode": "97223", "country": "United States", "timezone": "PACIFIC", "primaryDC": "DC05", "lat": 45.5051, "lng": -122.6750 },
  { "id": "2451", "status": "OPEN", "type": "Store", "name": "ARITZIA CENTURY CITY", "address": "10250 SANTA MONICA BLVD, UNIT 1720", "city": "LOS ANGELES", "state": "CA", "postalCode": "90067", "country": "United States", "timezone": "PACIFIC", "primaryDC": "DC05", "lat": 34.0522, "lng": -118.2437 },
  { "id": "2452", "status": "OPEN", "type": "Store", "name": "ARITZIA SOUTH COAST PLAZA", "address": "3333 BRISTOL ST, UNIT 2806", "city": "COSTA MESA", "state": "CA", "postalCode": "92626", "country": "United States", "timezone": "PACIFIC", "primaryDC": "DC05", "lat": 33.6411, "lng": -117.9187 },
  { "id": "2453", "status": "OPEN", "type": "Store", "name": "ARITZIA UTC", "address": "4305 LA JOLLA VILLAGE DR E, SUITE 2420", "city": "SAN DIEGO", "state": "CA", "postalCode": "92122", "country": "United States", "timezone": "PACIFIC", "primaryDC": "DC05", "lat": 32.7157, "lng": -117.1611 },
  { "id": "2454", "status": "OPEN", "type": "Store", "name": "ARITZIA AMERICANA AT BRAND", "address": "869 AMERICANA WAY, D-04", "city": "GLENDALE", "state": "CA", "postalCode": "91210", "country": "United States", "timezone": "PACIFIC", "primaryDC": "DC05", "lat": 34.1425, "lng": -118.2551 },
  { "id": "2455", "status": "OPEN", "type": "Store", "name": "ARITZIA TOPANGA", "address": "6600 TOPANGA CANYON BLVD, UNIT 63A", "city": "CANOGA PARK", "state": "CA", "postalCode": "91303", "country": "United States", "timezone": "PACIFIC", "primaryDC": "DC05", "lat": 34.1984, "lng": -118.5978 },
  { "id": "2456", "status": "OPEN", "type": "Store", "name": "ARITZIA THE GROVE", "address": "189 THE GROVE DRIVE, F-3", "city": "LOS ANGELES", "state": "CA", "postalCode": "90036", "country": "United States", "timezone": "PACIFIC", "primaryDC": "DC05", "lat": 34.0522, "lng": -118.2437 },
  { "id": "2457", "status": "OPEN", "type": "Store", "name": "ARITZIA FASHION VALLEY", "address": "7007 FRIARS RD, 304", "city": "SAN DIEGO", "state": "CA", "postalCode": "92108", "country": "United States", "timezone": "PACIFIC", "primaryDC": "DC05", "lat": 32.7157, "lng": -117.1611 },
  { "id": "2458", "status": "OPEN", "type": "Store", "name": "ARITZIA DESERT HILLS", "address": "48400 SEMINOLE DR, 0116", "city": "CABAZON", "state": "CA", "postalCode": "92230", "country": "United States", "timezone": "PACIFIC", "primaryDC": "DC05", "lat": 33.9175, "lng": -116.7836 },
  { "id": "2459", "status": "NBO", "type": "Store", "name": "ARITZIA DEL AMO FASHION CENTER", "address": "3525 W CARSON ST, 423A", "city": "TORRANCE", "state": "CA", "postalCode": "90503", "country": "United States", "timezone": "PACIFIC", "primaryDC": "DC05", "lat": 33.8358, "lng": -118.3406 },
  { "id": "2460", "status": "NBO", "type": "Store", "name": "ARITZIA LOS CERRITOS CENTER", "address": "239 LOS CERRITOS CENTER, A29", "city": "CERRITOS", "state": "CA", "postalCode": "90703", "country": "United States", "timezone": "PACIFIC", "primaryDC": "DC05", "lat": 33.8584, "lng": -118.0650 },
  { "id": "2471", "status": "OPEN", "type": "Store", "name": "ARITZIA CHERRY CREEK", "address": "3000 E 1ST AVE, UNIT 149", "city": "DENVER", "state": "CO", "postalCode": "80206", "country": "United States", "timezone": "MOUNTAIN", "primaryDC": "DC05", "lat": 39.7392, "lng": -104.9903 },
  { "id": "2472", "status": "OPEN", "type": "Store", "name": "ARITZIA PARK MEADOWS", "address": "8401 PARK MEADOWS CENTER DR, 1620", "city": "LONE TREE", "state": "CO", "postalCode": "80124", "country": "United States", "timezone": "MOUNTAIN", "primaryDC": "DC05", "lat": 39.5411, "lng": -104.8869 },
  { "id": "2481", "status": "OPEN", "type": "Store", "name": "ARITZIA ALA MOANA", "address": "1450 ALA MOANA BLVD, UNIT 2005", "city": "HONOLULU", "state": "HI", "postalCode": "96814", "country": "United States", "timezone": "HAWAII", "primaryDC": "DC05", "lat": 21.3069, "lng": -157.8583 },
  { "id": "2491", "status": "OPEN", "type": "Store", "name": "ARITZIA FORUM SHOPS", "address": "3500 LAS VEGAS BLVD S, UNIT E11B", "city": "LAS VEGAS", "state": "NV", "postalCode": "89109", "country": "United States", "timezone": "PACIFIC", "primaryDC": "DC05", "lat": 36.1699, "lng": -115.1398 },
  { "id": "2492", "status": "OPEN", "type": "Store", "name": "ARITZIA LAS VEGAS NORTH PREMIUM OUTLETS", "address": "875 SOUTH GRAND CENTRAL PKWY, 3299", "city": "LAS VEGAS", "state": "NV", "postalCode": "89106", "country": "United States", "timezone": "PACIFIC", "primaryDC": "DC05", "lat": 36.1699, "lng": -115.1398 },
  { "id": "2514", "status": "OPEN", "type": "Store", "name": "ARITZIA OAKBROOK", "address": "75 OAKBROOK CENTRE", "city": "OAK BROOK", "state": "IL", "postalCode": "60523", "country": "United States", "timezone": "CENTRAL", "primaryDC": "DC05", "lat": 41.8339, "lng": -87.9581 },
  { "id": "2515", "status": "OPEN", "type": "Store", "name": "ARITZIA RUSH STREET", "address": "923 NORTH RUSH STREET, UNIT 101A", "city": "CHICAGO", "state": "IL", "postalCode": "60611", "country": "United States", "timezone": "CENTRAL", "primaryDC": "DC05", "lat": 41.8781, "lng": -87.6298 },
  { "id": "2516", "status": "OPEN", "type": "Store", "name": "ARITZIA FASHION OUTLETS OF CHICAGO", "address": "5220 FASHION OUTLETS WAY, SUITE 2115", "city": "ROSEMONT", "state": "IL", "postalCode": "60018", "country": "United States", "timezone": "CENTRAL", "primaryDC": "DC05", "lat": 41.9837, "lng": -87.8684 },
  { "id": "2517", "status": "OPEN", "type": "Store", "name": "ARITZIA 555 NORTH MICHIGAN AVE", "address": "555 NORTH MICHIGAN AVE", "city": "CHICAGO", "state": "IL", "postalCode": "60611", "country": "United States", "timezone": "CENTRAL", "primaryDC": "DC05", "lat": 41.8781, "lng": -87.6298 },
  { "id": "2518", "status": "OPEN", "type": "Store", "name": "ARITZIA OLD ORCHARD", "address": "4999 OLD ORCHARD CENTRE, SUITE D10", "city": "SKOKIE", "state": "IL", "postalCode": "60077", "country": "United States", "timezone": "CENTRAL", "primaryDC": "DC05", "lat": 42.0324, "lng": -87.7340 },
  { "id": "2519", "status": "OPEN", "type": "Store", "name": "ARITZIA WOODFIELD MALL", "address": "5 WOODFIELD MALL, K309A-1", "city": "SCHAUMBURG", "state": "IL", "postalCode": "60173", "country": "United States", "timezone": "CENTRAL", "primaryDC": "DC05", "lat": 42.0334, "lng": -88.0834 },
  { "id": "2521", "status": "OPEN", "type": "Store", "name": "ARITZIA SOMERSET COLLECTION", "address": "2800 W BIG BEAVER ROAD, UNIT 245", "city": "TROY", "state": "MI", "postalCode": "48084", "country": "United States", "timezone": "EASTERN", "primaryDC": "DC05", "lat": 42.6064, "lng": -83.1498 },
  { "id": "2531", "status": "OPEN", "type": "Store", "name": "ARITZIA MALL OF AMERICA", "address": "60 E BROADWAY, SPACE W115", "city": "BLOOMINGTON", "state": "MN", "postalCode": "55425", "country": "United States", "timezone": "CENTRAL", "primaryDC": "DC05", "lat": 44.8547, "lng": -93.2422 },
  { "id": "2532", "status": "OPEN", "type": "Store", "name": "ARITZIA SOUTHDALE CENTER", "address": "10 SOUTHDALE CTR, 2615A", "city": "EDINA", "state": "MN", "postalCode": "55435", "country": "United States", "timezone": "CENTRAL", "primaryDC": "DC05", "lat": 44.8897, "lng": -93.3499 },
  { "id": "2541", "status": "OPEN", "type": "Store", "name": "ARITZIA EASTON TOWN CENTER", "address": "4180 THE STRAND, 320", "city": "COLUMBUS", "state": "OH", "postalCode": "43219", "country": "United States", "timezone": "EASTERN", "primaryDC": "DC05", "lat": 39.9612, "lng": -82.9988 },
  { "id": "2542", "status": "NBO", "type": "Store", "name": "ARITZIA KENWOOD TOWN CENTER", "address": "7875 MONTGOMERY RD, 80", "city": "CINCINNATI", "state": "OH", "postalCode": "45236", "country": "United States", "timezone": "EASTERN", "primaryDC": "DC05", "lat": 39.1031, "lng": -84.5120 },
  { "id": "2551", "status": "OPEN", "type": "Store", "name": "ARITZIA FASHION MALL AT KEYSTONE", "address": "8702 KEYSTONE CROSSING, 118B", "city": "INDIANAPOLIS", "state": "IN", "postalCode": "46240", "country": "United States", "timezone": "EASTERN", "primaryDC": "DC05", "lat": 39.7684, "lng": -86.1581 },
  { "id": "2561", "status": "OPEN", "type": "Store", "name": "ARITZIA TOWN CENTER CROSSING", "address": "4401 W 119TH ST, A139", "city": "LEAWOOD", "state": "KS", "postalCode": "66209", "country": "United States", "timezone": "CENTRAL", "primaryDC": "DC05", "lat": 38.9173, "lng": -94.6275 },
  { "id": "2601", "status": "OPEN", "type": "Store", "name": "ARITZIA SHORT HILLS", "address": "1200 MORRIS TURNPIKE, UNIT D207", "city": "SHORT HILLS", "state": "NJ", "postalCode": "07078", "country": "United States", "timezone": "EASTERN", "primaryDC": "DC05", "lat": 40.7440, "lng": -74.3249 },
  { "id": "2602", "status": "OPEN", "type": "Store", "name": "ARITZIA GARDEN STATE PLAZA", "address": "1 GARDEN STATE PLAZA, UNIT L1D", "city": "PARAMUS", "state": "NJ", "postalCode": "07652", "country": "United States", "timezone": "EASTERN", "primaryDC": "DC05", "lat": 40.9440, "lng": -74.0710 },
  { "id": "2603", "status": "OPEN", "type": "Store", "name": "ARITZIA AMERICAN DREAM", "address": "1 AMERICAN DREAM WAY, C148", "city": "EAST RUTHERFORD", "state": "NJ", "postalCode": "07073", "country": "United States", "timezone": "EASTERN", "primaryDC": "DC05", "lat": 40.8176, "lng": -74.0875 },
  { "id": "2611", "status": "OPEN", "type": "Store", "name": "ARITZIA SOHO", "address": "560 BROADWAY", "city": "NEW YORK", "state": "NY", "postalCode": "10012", "country": "United States", "timezone": "EASTERN", "primaryDC": "DC05", "lat": 40.7128, "lng": -74.0060 },
  { "id": "2612", "status": "OPEN", "type": "Store", "name": "ARITZIA 5TH AVE", "address": "608 5TH AVE", "city": "NEW YORK", "state": "NY", "postalCode": "10020", "country": "United States", "timezone": "EASTERN", "primaryDC": "DC05", "lat": 40.7128, "lng": -74.0060 },
  { "id": "2614", "status": "OPEN", "type": "Store", "name": "ARITZIA WESTCHESTER", "address": "125 WESTCHESTER AVE, UNIT 2480E", "city": "WHITE PLAINS", "state": "NY", "postalCode": "10601", "country": "United States", "timezone": "EASTERN", "primaryDC": "DC05", "lat": 41.0340, "lng": -73.7629 },
  { "id": "2615", "status": "OPEN", "type": "Store", "name": "ARITZIA FLATIRON", "address": "115 FIFTH AVE", "city": "NEW YORK", "state": "NY", "postalCode": "10003", "country": "United States", "timezone": "EASTERN", "primaryDC": "DC05", "lat": 40.7128, "lng": -74.0060 },
  { "id": "2616", "status": "OPEN", "type": "Store", "name": "ARITZIA ROOSEVELT FIELD", "address": "630 OLD COUNTRY RD, UNIT 1113A", "city": "GARDEN CITY", "state": "NY", "postalCode": "11530", "country": "United States", "timezone": "EASTERN", "primaryDC": "DC05", "lat": 40.7268, "lng": -73.6355 },
  { "id": "2617", "status": "OPEN", "type": "Store", "name": "ARITZIA HUDSON YARDS", "address": "20 HUDSON YARDS, UNIT 327", "city": "NEW YORK", "state": "NY", "postalCode": "10001", "country": "United States", "timezone": "EASTERN", "primaryDC": "DC05", "lat": 40.7128, "lng": -74.0060 },
  { "id": "2641", "status": "OPEN", "type": "Store", "name": "ARITZIA KING OF PRUSSIA", "address": "160 N GULPH RD, 1178B", "city": "KING OF PRUSSIA", "state": "PA", "postalCode": "19406", "country": "United States", "timezone": "EASTERN", "primaryDC": "DC05", "lat": 40.0913, "lng": -75.3811 },
  { "id": "2642", "status": "OPEN", "type": "Store", "name": "ARITZIA WALNUT STREET", "address": "1725 WALNUT STREET", "city": "PHILADELPHIA", "state": "PA", "postalCode": "19103", "country": "United States", "timezone": "EASTERN", "primaryDC": "DC05", "lat": 39.9526, "lng": -75.1652 },
  { "id": "2643", "status": "OPEN", "type": "Store", "name": "ARITZIA ROSS PARK", "address": "1000 ROSS PARK DR, F088", "city": "PITTSBURGH", "state": "PA", "postalCode": "15237", "country": "United States", "timezone": "EASTERN", "primaryDC": "DC05", "lat": 40.4406, "lng": -79.9959 },
  { "id": "2651", "status": "OPEN", "type": "Store", "name": "ARITZIA PRUDENTIAL CENTER", "address": "800 BOYLSTON ST, SPACE A", "city": "BOSTON", "state": "MA", "postalCode": "02199", "country": "United States", "timezone": "EASTERN", "primaryDC": "DC05", "lat": 42.3601, "lng": -71.0589 },
  { "id": "2652", "status": "OPEN", "type": "Store", "name": "ARITZIA BURLINGTON MALL", "address": "75 MIDDLESEX TURNPIKE, 1033B", "city": "BURLINGTON", "state": "MA", "postalCode": "01803", "country": "United States", "timezone": "EASTERN", "primaryDC": "DC05", "lat": 42.5048, "lng": -71.1956 },
  { "id": "2653", "status": "OPEN", "type": "Store", "name": "ARITZIA LEGACY PLACE", "address": "680 LEGACY PLACE, 650", "city": "DEDHAM", "state": "MA", "postalCode": "02026", "country": "United States", "timezone": "EASTERN", "primaryDC": "DC05", "lat": 42.2417, "lng": -71.1773 },
  { "id": "2671", "status": "OPEN", "type": "Store", "name": "ARITZIA TYSONS CORNER", "address": "1961 CHAIN BRIDGE RD, F003U", "city": "TYSONS CORNER", "state": "VA", "postalCode": "22102", "country": "United States", "timezone": "EASTERN", "primaryDC": "DC05", "lat": 38.9176, "lng": -77.2311 },
  { "id": "2701", "status": "OPEN", "type": "Store", "name": "ARITZIA GREEN HILLS", "address": "2126 ABBOTT MARTIN ROAD, SPACE 121", "city": "NASHVILLE", "state": "TN", "postalCode": "37215", "country": "United States", "timezone": "CENTRAL", "primaryDC": "DC05", "lat": 36.1627, "lng": -86.7816 },
  { "id": "2711", "status": "OPEN", "type": "Store", "name": "ARITZIA LENOX SQUARE", "address": "3393 PEACHTREE RD N, 3044", "city": "ATLANTA", "state": "GA", "postalCode": "30326", "country": "United States", "timezone": "EASTERN", "primaryDC": "DC05", "lat": 33.7490, "lng": -84.3880 },
  { "id": "2721", "status": "OPEN", "type": "Store", "name": "ARITZIA SOUTH PARK", "address": "4400 SHARON RD, M11A", "city": "CHARLOTTE", "state": "NC", "postalCode": "28211", "country": "United States", "timezone": "EASTERN", "primaryDC": "DC05", "lat": 35.2271, "lng": -80.8431 },
  { "id": "2722", "status": "OPEN", "type": "Store", "name": "ARITZIA STREETS AT SOUTHPOINT", "address": "6910 FAYETTEVILLE ROAD, 1065", "city": "DURHAM", "state": "NC", "postalCode": "27713", "country": "United States", "timezone": "EASTERN", "primaryDC": "DC05", "lat": 35.9940, "lng": -78.8986 },
  { "id": "2751", "status": "OPEN", "type": "Store", "name": "ARITZIA AVENTURA", "address": "19501 BISCAYNE BLVD, 727", "city": "AVENTURA", "state": "FL", "postalCode": "33180", "country": "United States", "timezone": "EASTERN", "primaryDC": "DC05", "lat": 25.9564, "lng": -80.1394 },
  { "id": "2752", "status": "OPEN", "type": "Store", "name": "ARITZIA MALL AT MILLENIA", "address": "4200 CONROY RD, H-220", "city": "ORLANDO", "state": "FL", "postalCode": "32839", "country": "United States", "timezone": "EASTERN", "primaryDC": "DC05", "lat": 28.5383, "lng": -81.3792 },
  { "id": "2753", "status": "OPEN", "type": "Store", "name": "ARITZIA TOWN CENTER AT BOCA RATON", "address": "6000 GLADES ROAD, UNIT 1077B", "city": "BOCA RATON", "state": "FL", "postalCode": "33431", "country": "United States", "timezone": "EASTERN", "primaryDC": "DC05", "lat": 26.3683, "lng": -80.1289 },
  { "id": "2754", "status": "OPEN", "type": "Store", "name": "ARITZIA INTERNATIONAL PLAZA", "address": "2223 N WESTSHORE BLVD, UNIT 282", "city": "TAMPA", "state": "FL", "postalCode": "33607", "country": "United States", "timezone": "EASTERN", "primaryDC": "DC05", "lat": 27.9506, "lng": -82.4572 },
  { "id": "2755", "status": "OPEN", "type": "Store", "name": "ARITZIA ST JOHNS TOWN CENTER", "address": "4751 RIVER CITY DRIVE, SUITE 101", "city": "JACKSONVILLE", "state": "FL", "postalCode": "32246", "country": "United States", "timezone": "EASTERN", "primaryDC": "DC05", "lat": 30.3322, "lng": -81.6557 },
  { "id": "2756", "status": "OPEN", "type": "Store", "name": "ARITZIA DADELAND", "address": "7535 N KENDALL DR, 1580", "city": "MIAMI", "state": "FL", "postalCode": "33156", "country": "United States", "timezone": "EASTERN", "primaryDC": "DC05", "lat": 25.7617, "lng": -80.1918 },
  { "id": "2757", "status": "OPEN", "type": "Store", "name": "ARITZIA THE GARDENS", "address": "3101 PGA BOULEVARD, SUITE P-223", "city": "PALM BEACH GARDENS", "state": "FL", "postalCode": "33410", "country": "United States", "timezone": "EASTERN", "primaryDC": "DC05", "lat": 26.8237, "lng": -80.1337 },
  { "id": "2758", "status": "OPEN", "type": "Store", "name": "ARITZIA BRICKELL CITY CENTRE", "address": "701 S MIAMI AVE, 181", "city": "MIAMI", "state": "FL", "postalCode": "33131", "country": "United States", "timezone": "EASTERN", "primaryDC": "DC05", "lat": 25.7617, "lng": -80.1918 },
  { "id": "2802", "status": "OPEN", "type": "Store", "name": "ARITZIA NORTH PARK", "address": "8687 N CENTRAL EXPY, UNIT E-1-727", "city": "DALLAS", "state": "TX", "postalCode": "75225", "country": "United States", "timezone": "CENTRAL", "primaryDC": "DC05", "lat": 32.7767, "lng": -96.7970 },
  { "id": "2803", "status": "OPEN", "type": "Store", "name": "ARITZIA THE DOMAIN", "address": "11410 CENTURY OAKS TERRACE, UNIT C06", "city": "AUSTIN", "state": "TX", "postalCode": "78758", "country": "United States", "timezone": "CENTRAL", "primaryDC": "DC05", "lat": 30.2672, "lng": -97.7431 },
  { "id": "2804", "status": "OPEN", "type": "Store", "name": "ARITZIA HOUSTON GALLERIA", "address": "5085 WESTHEIMER RD, SPACE B2584", "city": "HOUSTON", "state": "TX", "postalCode": "77056", "country": "United States", "timezone": "CENTRAL", "primaryDC": "DC05", "lat": 29.7604, "lng": -95.3698 },
  { "id": "2805", "status": "OPEN", "type": "Store", "name": "ARITZIA LA CANTERA", "address": "15900 LA CANTERA PARKWAY, 1500", "city": "SAN ANTONIO", "state": "TX", "postalCode": "78256", "country": "United States", "timezone": "CENTRAL", "primaryDC": "DC05", "lat": 29.4241, "lng": -98.4936 },
  { "id": "2806", "status": "OPEN", "type": "Store", "name": "ARITZIA SOUTHLAKE", "address": "279 GRAND AVENUE WEST", "city": "SOUTHLAKE", "state": "TX", "postalCode": "76092", "country": "United States", "timezone": "CENTRAL", "primaryDC": "DC05", "lat": 32.9410, "lng": -97.1327 },
  { "id": "2807", "status": "OPEN", "type": "Store", "name": "ARITZIA LEGACY WEST", "address": "7300 WINDROSE AVE, A130", "city": "PLANO", "state": "TX", "postalCode": "75024", "country": "United States", "timezone": "CENTRAL", "primaryDC": "DC05", "lat": 33.0198, "lng": -96.6989 },
  { "id": "2821", "status": "OPEN", "type": "Store", "name": "ARITZIA SCOTTSDALE FASHION SQUARE", "address": "7014 EAST CAMELBACK RD, 1023", "city": "SCOTTSDALE", "state": "AZ", "postalCode": "85251", "country": "United States", "timezone": "MOUNTAIN", "primaryDC": "DC05", "lat": 33.4942, "lng": -111.9261 },
  { "id": "2822", "status": "OPEN", "type": "Store", "name": "ARITZIA KIERLAND COMMONS", "address": "15215 N KIERLAND BLVD, STE 109B1A", "city": "SCOTTSDALE", "state": "AZ", "postalCode": "85254", "country": "United States", "timezone": "MOUNTAIN", "primaryDC": "DC05", "lat": 33.4942, "lng": -111.9261 },
  { "id": "2831", "status": "OPEN", "type": "Store", "name": "ARITZIA FASHION PLACE", "address": "6191 SOUTH STATE ST, 1686", "city": "MURRAY", "state": "UT", "postalCode": "84107", "country": "United States", "timezone": "MOUNTAIN", "primaryDC": "DC05", "lat": 40.6669, "lng": -111.8879 }
]
